[{
    "attributes": {
        "ID": "10001",
        "NAME": "LeGrand Johnson Construction Company: Nibley Pit/Wash Plant",
        "ADDRESS": "6 miles south of Logan",
        "CITY": "Nibley",
        "TYPE": "n/a"
    },
    "geometry": {
        "x": 430600.0,
        "y": 4614000.0,
        "type": "point",
        "spatialReference": null
    }
}, {
    "attributes": {
        "ID": "10005",
        "NAME": "El Paso Field Operations Company: Altamont Main Gas Processing Plant",
        "ADDRESS": "PO Box 410",
        "CITY": "Altamont",
        "TYPE": "n/a"
    },
    "geometry": {
        "x": 557129.0,
        "y": 4467475.0,
        "type": "point",
        "spatialReference": null
    }
}, {
    "attributes": {
        "ID": "10007",
        "NAME": "Holcim (US) Inc.: Devil's Slide Plant",
        "ADDRESS": "6055 E. Croydon Rd.",
        "CITY": "Morgan",
        "TYPE": "n/a"
    },
    "geometry": {
        "x": 455500.0,
        "y": 4545500.0,
        "type": "point",
        "spatialReference": null
    }
}, {
    "attributes": {
        "ID": "14086",
        "NAME": "Southern Utah Asphalt - Cedar City Asphalt Plant",
        "ADDRESS": "1220 North Airport Road",
        "CITY": "Cedar City (Garfield)",
        "TYPE": "n/a"
    },
    "geometry": {
        "x": 316170.0,
        "y": 4174160.0,
        "type": "point",
        "spatialReference": null
    }
}]